<?xml version="1.0" encoding="UTF-8"?>
<kml xmlns="http://earth.google.com/kml/2.2">
  <Document>
    <name>Overview</name>
    
    <Placemark>
      <name>Lone Star Ruby Conference 2008</name>
      <visibility>1</visibility>
      <LookAt>
        <longitude>-97.73416666666668</longitude>
        <latitude>30.35513888888889</latitude>
        <altitude>0</altitude>
        <range>1000</range>
        <tilt>0</tilt>
        <heading>0</heading>
      </LookAt>
      <Point>
        <coordinates>-97.73416666666668,30.35513888888889,0</coordinates>
      </Point>
    </Placemark>

    <Placemark>
      <name>Tanzania</name>
      <visibility>0</visibility>
      <LookAt>
        <longitude>34.888822</longitude>
        <latitude>-6.369028</latitude>
        <altitude>0</altitude>
        <range>2000000</range>
        <tilt>0</tilt>
        <heading>0</heading>
      </LookAt>
      <Point>
        <coordinates>34.888822,-6.369028,0</coordinates>
      </Point>
    </Placemark>

    <Placemark>
      <name>Zanzibar</name>
      <visibility>0</visibility>
      <LookAt>
        <longitude>39.3822</longitude>
        <latitude>-6.097406</latitude>
        <altitude>0</altitude>
        <range>500000</range>
        <tilt>0</tilt>
        <heading>0</heading>
      </LookAt>
      <Point>
        <coordinates>39.3822,-6.097406,0</coordinates>
      </Point>
    </Placemark>

    <Placemark>
      <name>The Serengeti</name>
      <visibility>0</visibility>
      <LookAt>
        <longitude>34.56728</longitude>
        <latitude>-2.334978</latitude>
        <altitude>0</altitude>
        <range>500000</range>
        <tilt>0</tilt>
        <heading>-5.764755360152625e-15</heading>
      </LookAt>
      <Point>
        <coordinates>34.56728,-2.334978,0</coordinates>
      </Point>
    </Placemark>

    <Placemark>
      <name>Mount Kilimanjaro</name>
      <visibility>0</visibility>
      <LookAt>
        <longitude>37.359076</longitude>
        <latitude>-3.065274</latitude>
        <altitude>0</altitude>
        <range>100000</range>
        <tilt>0</tilt>
        <heading>0</heading>
      </LookAt>
      <Point>
        <coordinates>37.359076,-3.065274,0</coordinates>
      </Point>
    </Placemark>

    <Placemark>
      <name>This Is Where I Live</name>
      <visibility>0</visibility>
      <LookAt>
        <longitude>37.34230305957587</longitude>
        <latitude>-3.336384455471211</latitude>
        <altitude>0</altitude>
        <range>200</range>
        <tilt>0</tilt>
        <heading>0</heading>
      </LookAt>
      <Point>
        <coordinates>37.34225808125825,-3.336103264292809,0</coordinates>
      </Point>
    </Placemark>
  </Document>
</kml>
